[
  {"id": "rosenbergs-execution-1953", "name": "Execution of Rosenbergs (1953)", "coordinates": [-73.8654, 41.1578]},
  {"id": "cambridge-five-exposed-1951", "name": "Cambridge Five (1951)", "coordinates": [0.1132, 52.2054]},
  {"id": "u2-spy-plane-incident-1960", "name": "U-2 Incident (1960)", "coordinates": [60.6057, 56.8389]},
  {"id": "mata-hari-execution-1917", "name": "Execution of Mata Hari (1917)", "coordinates": [2.4333, 48.8333]},
  {"id": "watergate-scandal-1972", "name": "Watergate Scandal (1972)", "coordinates": [-77.0502, 38.8951]},
  {"id": "enigma-code-broken-1941", "name": "Enigma Code Broken (1941)", "coordinates": [-0.7431, 51.9961]},
  {"id": "aldrich-ames-betrayal-1994", "name": "Aldrich Ames (1994)", "coordinates": [-77.0863, 38.8913]},
  {"id": "oleg-penkovsky-cuban-crisis-1962", "name": "Oleg Penkovsky (1962)", "coordinates": [37.6173, 55.7558]},
  {"id": "eli-cohen-syria-1965", "name": "Eli Cohen (1965)", "coordinates": [36.2765, 33.5138]},
  {"id": "richard-sorge-tokyo-1941", "name": "Richard Sorge (1941)", "coordinates": [139.6917, 35.6895]}
]
