[
  {"id": "rosenbergs-execution-1953", "name": "Execution of Rosenbergs", "coordinates": [-73.8654, 41.1578]},
  {"id": "cambridge-five-exposed-1951", "name": "Cambridge Five", "coordinates": [0.1132, 52.2054]},
  {"id": "u2-spy-plane-incident-1960", "name": "U-2 Incident", "coordinates": [60.6057, 56.8389]},
  {"id": "mata-hari-execution-1917", "name": "Execution of Mata Hari", "coordinates": [2.4333, 48.8333]},
  {"id": "watergate-scandal-1972", "name": "Watergate Scandal", "coordinates": [-77.0502, 38.8951]},
  {"id": "enigma-code-broken-1941", "name": "Enigma Code Broken", "coordinates": [-0.7431, 51.9961]}
]
