[
  { "id": "holocaust", "name": "Holocaust", "coordinates": [13.41, 52.52] },
  { "id": "armenian-genocide", "name": "Armenian Genocide", "coordinates": [44.51, 40.18] },
  { "id": "armenian-genocide-1915", "name": "Armenian Genocide 1915", "coordinates": [44.51, 40.18] },
  { "id": "rwandan-genocide", "name": "Rwandan Genocide", "coordinates": [29.87, -1.95] },
  { "id": "rwandan-genocide-1994", "name": "Rwandan Genocide 1994", "coordinates": [30.06, -1.95] },
  { "id": "rwanda-genocide-1994", "name": "Rwanda Genocide 1994", "coordinates": [30.06, -1.95] },
  { "id": "cambodian-genocide", "name": "Cambodian Genocide", "coordinates": [104.87, 12.57] },
  { "id": "cambodia-khmer-rouge-genocide-1975", "name": "Khmer Rouge Genocide 1975", "coordinates": [104.87, 12.57] },
  { "id": "khmer-rouge-genocide", "name": "Khmer Rouge Genocide", "coordinates": [104.87, 12.57] },
  { "id": "bosnian-genocide", "name": "Bosnian Genocide", "coordinates": [18.41, 43.92] },
  { "id": "srebrenica-genocide", "name": "Srebrenica Genocide", "coordinates": [19.28, 43.79] },
  { "id": "srebrenica-genocide-1995", "name": "Srebrenica Genocide 1995", "coordinates": [19.28, 43.79] },
  { "id": "srebrenica-massacre", "name": "Srebrenica Massacre", "coordinates": [19.28, 43.79] },
  { "id": "srebrenica-massacre-1995", "name": "Srebrenica Massacre 1995", "coordinates": [19.28, 43.79] },
  { "id": "holodomor", "name": "Holodomor", "coordinates": [39.91, 50.45] },
  { "id": "holodomor-1932", "name": "Holodomor 1932", "coordinates": [39.91, 50.45] },
  { "id": "nanjing-massacre", "name": "Nanjing Massacre", "coordinates": [118.80, 32.06] },
  { "id": "nanjing-massacre-1937", "name": "Nanjing Massacre 1937", "coordinates": [118.80, 32.06] },
  { "id": "darfur-genocide", "name": "Darfur Genocide", "coordinates": [25.0, 13.0] },
  { "id": "darfur-conflict", "name": "Darfur Conflict", "coordinates": [25.0, 13.0] },
  { "id": "east-timor-genocide", "name": "East Timor Genocide", "coordinates": [124.04, -8.84] },
  { "id": "guatemala-genocide", "name": "Guatemala Genocide", "coordinates": [-90.23, 15.50] },
  { "id": "herero-genocide", "name": "Herero Genocide", "coordinates": [18.42, -22.56] },
  { "id": "anfal-genocide", "name": "Anfal Genocide", "coordinates": [44.37, 37.80] },
  { "id": "bangladesh-genocide-1971", "name": "Bangladesh Genocide 1971", "coordinates": [90.36, 23.69] },
  { "id": "uyghur-genocide", "name": "Uyghur Genocide", "coordinates": [87.63, 43.79] },
  { "id": "uyghur-detention-camps", "name": "Uyghur Detention Camps", "coordinates": [87.63, 43.79] },
  { "id": "rohingya-genocide", "name": "Rohingya Genocide", "coordinates": [96.20, 16.87] },
  { "id": "myanmar-rohingya-genocide", "name": "Myanmar Rohingya Genocide", "coordinates": [96.20, 16.87] },
  { "id": "yazidi-genocide", "name": "Yazidi Genocide", "coordinates": [42.24, 36.24] },
  { "id": "isis-genocide-of-yazidis", "name": "ISIS Genocide of Yazidis", "coordinates": [41.82, 36.32] },
  { "id": "adolf-hitler", "name": "Adolf Hitler", "coordinates": [13.47, 48.27] },
  { "id": "heinrich-himmler", "name": "Heinrich Himmler", "coordinates": [11.58, 48.14] },
  { "id": "josef-mengele", "name": "Josef Mengele", "coordinates": [19.18, 50.03] },
  { "id": "reinhard-heydrich", "name": "Reinhard Heydrich", "coordinates": [14.42, 50.08] },
  { "id": "adolf-eichmann", "name": "Adolf Eichmann", "coordinates": [21.86, 47.49] }
]
