[
  {"id": "barack-obama", "name": "Barack Obama (USA)", "coordinates": [-77.0369, 38.9072]},
  {"id": "angela-merkel", "name": "Angela Merkel (Germany)", "coordinates": [13.4050, 52.5200]},
  {"id": "vladimir-putin", "name": "Vladimir Putin (Russia)", "coordinates": [37.6173, 55.7558]},
  {"id": "xi-jinping", "name": "Xi Jinping (China)", "coordinates": [116.4074, 39.9042]},
  {"id": "narendra-modi", "name": "Narendra Modi (India)", "coordinates": [77.2090, 28.6139]},
  {"id": "emmanuel-macron", "name": "Emmanuel Macron (France)", "coordinates": [2.3522, 48.8566]},
  {"id": "justin-trudeau", "name": "Justin Trudeau (Canada)", "coordinates": [-75.6972, 45.4215]},
  {"id": "shinzo-abe", "name": "Shinzo Abe (Japan)", "coordinates": [139.6917, 35.6895]},
  {"id": "jacinda-ardern", "name": "Jacinda Ardern (New Zealand)", "coordinates": [174.7762, -41.2865]},
  {"id": "recep-tayyip-erdogan", "name": "Recep Tayyip Erdogan (Turkey)", "coordinates": [32.8597, 39.9334]}
]
