[
  {"id": "september-11-attacks-2001", "name": "9/11 Attacks (2001)", "coordinates": [-74.0134, 40.7129]},
  {"id": "munich-massacre-1972", "name": "Munich Massacre (1972)", "coordinates": [11.5530, 48.1731]},
  {"id": "oklahoma-city-bombing-1995", "name": "Oklahoma City Bombing (1995)", "coordinates": [-97.5171, 35.4730]},
  {"id": "tokyo-sarin-attack-1995", "name": "Tokyo Sarin Attack (1995)", "coordinates": [139.7523, 35.6713]},
  {"id": "norway-attacks-2011", "name": "2011 Norway Attacks (2011)", "coordinates": [10.2505, 60.0245]},
  {"id": "beslan-school-siege-2004", "name": "Beslan School Siege (2004)", "coordinates": [44.5369, 43.1843]},
  {"id": "heysel-stadium-disaster-1985", "name": "Heysel Disaster (1985)", "coordinates": [4.3921, 50.8950]},
  {"id": "mumbai-attacks-2008", "name": "Mumbai Attacks (2008)", "coordinates": [72.8333, 18.9220]},
  {"id": "london-bombings-2005", "name": "7/7 London Bombings (2005)", "coordinates": [-0.1262, 51.5229]},
  {"id": "paris-attacks-2015", "name": "Paris Attacks (2015)", "coordinates": [2.3705, 48.8637]}
]
